[
  {
    "name": "Boddington",
    "lat": -32.7811079261425,
    "lng": 116.456786664418,
    "score": 2.7,
    "assessments": 33,
    "completionRate": 0.22,
    "businessUnit": "South America Operations",
    "processStep": "Environmental & Closure",
    "riskLevel": "Medium",
    "performance": "Poor",
    "assessmentTemplate": "WM DE AS&T AH Assessment"
  },
  {
    "name": "Tanami",
    "lat": -20.5461170397094,
    "lng": 130.331979673335,
    "score": 1.2,
    "assessments": 66,
    "completionRate": 0.2,
    "businessUnit": "Africa Operations",
    "processStep": "Processing & Refining",
    "riskLevel": "Low",
    "performance": "Fair",
    "assessmentTemplate": "WM DE AS&T AH Assessment"
  },
  {
    "name": "Cadia",
    "lat": -33.4222604795641,
    "lng": 149.022826582817,
    "score": 2.7,
    "assessments": 40,
    "completionRate": 0.16,
    "businessUnit": "Asia Pacific Operations",
    "processStep": "Processing & Refining",
    "riskLevel": "Medium",
    "performance": "Fair",
    "assessmentTemplate": "WM DE AS&T AH Assessment"
  },
  {
    "name": "Lihir",
    "lat": -3.0667269282504,
    "lng": 152.63671474323,
    "score": 2.9,
    "assessments": 72,
    "completionRate": 0.58,
    "businessUnit": "South America Operations",
    "processStep": "Processing & Refining",
    "riskLevel": "High",
    "performance": "Excellent",
    "assessmentTemplate": "WM DE AS&T AH Assessment"
  },
  {
    "name": "Ahafo",
    "lat": 7.10449352217684,
    "lng": -2.36337129106845,
    "score": 1.2,
    "assessments": 52,
    "completionRate": 0.03,
    "businessUnit": "Asia Pacific Operations",
    "processStep": "Processing & Refining",
    "riskLevel": "High",
    "performance": "Excellent",
    "assessmentTemplate": "WM DE AS&T AH Assessment"
  },
  {
    "name": "Brucejack",
    "lat": 56.4665682687712,
    "lng": -130.187190231592,
    "score": 1.4,
    "assessments": 30,
    "completionRate": 0.72,
    "businessUnit": "South America Operations",
    "processStep": "Processing & Refining",
    "riskLevel": "Critical",
    "performance": "Good",
    "assessmentTemplate": "WM DE AS&T AH Assessment"
  },
  {
    "name": "Red Chris",
    "lat": 57.7331253841568,
    "lng": -129.767630858498,
    "score": 3.4,
    "assessments": 22,
    "completionRate": 0.06,
    "businessUnit": "Africa Operations",
    "processStep": "Extraction & Mining",
    "riskLevel": "Critical",
    "performance": "Good",
    "assessmentTemplate": "WM DE AS&T AH Assessment"
  },
  {
    "name": "Cerro Negro",
    "lat": -46.8743500443056,
    "lng": -70.2215563876252,
    "score": 3.6,
    "assessments": 48,
    "completionRate": 0.85,
    "businessUnit": "South America Operations",
    "processStep": "Processing & Refining",
    "riskLevel": "Medium",
    "performance": "Good",
    "assessmentTemplate": "WM DE AS&T AH Assessment"
  },
  {
    "name": "Yanacocha",
    "lat": -6.97271520435202,
    "lng": -78.4978067873101,
    "score": 3,
    "assessments": 55,
    "completionRate": 0.04,
    "businessUnit": "South America Operations",
    "processStep": "Environmental & Closure",
    "riskLevel": "High",
    "performance": "Fair",
    "assessmentTemplate": "WM DE AS&T AH Assessment"
  },
  {
    "name": "Merian",
    "lat": 5.12517405586319,
    "lng": -54.5495137892266,
    "score": 1.9,
    "assessments": 33,
    "completionRate": 0.62,
    "businessUnit": "South America Operations",
    "processStep": "Processing & Refining",
    "riskLevel": "Low",
    "performance": "Excellent",
    "assessmentTemplate": "WM DE AS&T AH Assessment"
  },
  {
    "name": "Pueblo Veijo",
    "lat": 18.9182792736689,
    "lng": -70.1601829755551,
    "score": 2.4,
    "assessments": 53,
    "completionRate": 0.37,
    "businessUnit": "Asia Pacific Operations",
    "processStep": "Extraction & Mining",
    "riskLevel": "Critical",
    "performance": "Fair",
    "assessmentTemplate": "WM DE AS&T AH Assessment"
  },
  {
    "name": "Penasquito",
    "lat": 29.021718791011,
    "lng": -102.185118239212,
    "score": 3.5,
    "assessments": 55,
    "completionRate": 0.68,
    "businessUnit": "South America Operations",
    "processStep": "Processing & Refining",
    "riskLevel": "Medium",
    "performance": "Fair",
    "assessmentTemplate": "WM DE AS&T AH Assessment"
  },
  {
    "name": "Cortez",
    "lat": 40.24583,
    "lng": -116.71111,
    "score": 1.3,
    "assessments": 73,
    "completionRate": 0.06,
    "businessUnit": "Africa Operations",
    "processStep": "Exploration & Planning",
    "riskLevel": "Critical",
    "performance": "Good",
    "assessmentTemplate": "WM DE AS&T AH Assessment"
  },
  {
    "name": "Carlin",
    "lat": 40.9165385988189,
    "lng": -116.324368127069,
    "score": 3.4,
    "assessments": 51,
    "completionRate": 0.04,
    "businessUnit": "South America Operations",
    "processStep": "Environmental & Closure",
    "riskLevel": "High",
    "performance": "Poor",
    "assessmentTemplate": "WM DE AS&T AH Assessment"
  },
  {
    "name": "Turquiose Ridge",
    "lat": 41.2156606721357,
    "lng": -117.186549101175,
    "score": 1.3,
    "assessments": 76,
    "completionRate": 0.52,
    "businessUnit": "South America Operations",
    "processStep": "Environmental & Closure",
    "riskLevel": "Critical",
    "performance": "Good",
    "assessmentTemplate": "WM DE AS&T AH Assessment"
  },
  {
    "name": "Phoenix",
    "lat": 40.5145623351077,
    "lng": -117.1438256065,
    "score": 1.9,
    "assessments": 76,
    "completionRate": 0.21,
    "businessUnit": "North America Operations",
    "processStep": "Processing & Refining",
    "riskLevel": "High",
    "performance": "Good",
    "assessmentTemplate": "WM DE AS&T AH Assessment"
  },
  {
    "name": "Long Canyon",
    "lat": 41.0098258783031,
    "lng": -114.497710615264,
    "score": 3.2,
    "assessments": 61,
    "completionRate": 0.13,
    "businessUnit": "North America Operations",
    "processStep": "Extraction & Mining",
    "riskLevel": "High",
    "performance": "Fair",
    "assessmentTemplate": "WM DE AS&T AH Assessment"
  }
]